{"id":"paris_poi_1","name":"Louvre Museum","city":"Paris","neighborhood":"1er","category":"museum","avg_duration_min":150,"price_level":"$$","hours":"09:00-18:00 (Tue-Sun)","lat":48.8606,"lng":2.3376,"tags":["art","classic","iconic"],"summary":"Dünyanın en büyük sanat müzesi; Mona Lisa ve klasik koleksiyonlar."}
{"id":"paris_poi_2","name":"Eiffel Tower","city":"Paris","neighborhood":"7e","category":"landmark","avg_duration_min":90,"price_level":"$$","hours":"09:30-23:45","lat":48.8584,"lng":2.2945,"tags":["view","iconic","architecture"],"summary":"Paris'in sembolik kulesi; şehir manzarası için en popüler nokta."}
{"id":"paris_poi_3","name":"Montmartre & Sacré-Cœur","city":"Paris","neighborhood":"18e","category":"neighborhood","avg_duration_min":120,"price_level":"$","hours":"24/7 (Bazilika 06:00-22:30)","lat":48.8867,"lng":2.3431,"tags":["bohemian","art","view"],"summary":"Sanatçıların mahallesi; Sacré-Cœur Bazilikası ve tepe manzarası."}
{"id":"paris_poi_4","name":"Musée d'Orsay","city":"Paris","neighborhood":"7e","category":"museum","avg_duration_min":120,"price_level":"$$","hours":"09:30-18:00 (Tue-Sun)","lat":48.8600,"lng":2.3266,"tags":["impressionism","art","museum"],"summary":"İzlenimcilik başyapıtları koleksiyonu; eski tren garında müze."}
{"id":"paris_poi_5","name":"Le Marais","city":"Paris","neighborhood":"3e-4e","category":"neighborhood","avg_duration_min":120,"price_level":"$","hours":"24/7","lat":48.8589,"lng":2.3622,"tags":["historic","boutique","food"],"summary":"Tarihi sokaklar, butik mağazalar ve gastronomi odaklı canlı mahalle."}
{"id":"paris_poi_6","name":"Notre-Dame çevresi","city":"Paris","neighborhood":"4e","category":"landmark","avg_duration_min":60,"price_level":"$","hours":"24/7 (yenileme çalışmaları sürüyor)","lat":48.8530,"lng":2.3499,"tags":["gothic","cathedral","historic"],"summary":"Gotik mimarinin simgesi katedral ve çevresindeki tarihi ada."}
{"id":"paris_poi_7","name":"Saint-Germain-des-Prés","city":"Paris","neighborhood":"6e","category":"neighborhood","avg_duration_min":90,"price_level":"$$","hours":"24/7","lat":48.8530,"lng":2.3330,"tags":["cafe","literature","chic"],"summary":"Klasik Paris kafeleri ve edebiyat tarihiyle ünlü şık mahalle."}
{"id":"paris_poi_8","name":"Centre Pompidou","city":"Paris","neighborhood":"4e","category":"museum","avg_duration_min":120,"price_level":"$$","hours":"11:00-21:00 (Wed-Mon)","lat":48.8606,"lng":2.3522,"tags":["modern-art","architecture","gallery"],"summary":"Modern ve çağdaş sanat merkezi; ikonik endüstriyel mimari."}
{"id":"paris_poi_9","name":"Luxembourg Gardens","city":"Paris","neighborhood":"6e","category":"park","avg_duration_min":90,"price_level":"$","hours":"07:30-sunset","lat":48.8462,"lng":2.3372,"tags":["garden","relax","walk"],"summary":"Dinlenmek ve piknik yapmak için ideal klasik Paris parkı."}
{"id":"paris_poi_10","name":"Rue Cler","city":"Paris","neighborhood":"7e","category":"food-street","avg_duration_min":60,"price_level":"$$","hours":"10:00-20:00","lat":48.8575,"lng":2.3061,"tags":["market","cheese","bakery"],"summary":"Yerel pazar sokakları; peynir, fırın ve şarküteri keşifleri."}
{"id":"istanbul_poi_1","name":"Ayasofya","city":"Istanbul","neighborhood":"Sultanahmet","category":"landmark","avg_duration_min":90,"price_level":"$","hours":"09:00-17:00","lat":41.0086,"lng":28.9802,"tags":["historic","byzantine","mosque"],"summary":"1500 yıllık tarihi, Bizans ve Osmanlı mimarisinin birleşimi."}
{"id":"istanbul_poi_2","name":"Topkapı Sarayı","city":"Istanbul","neighborhood":"Sultanahmet","category":"museum","avg_duration_min":180,"price_level":"$$","hours":"09:00-17:00","lat":41.0115,"lng":28.9834,"tags":["ottoman","palace","historic"],"summary":"Osmanlı İmparatorluğu'nun 400 yıl boyunca yönetim merkezi."}
{"id":"istanbul_poi_3","name":"Kapalı Çarşı","city":"Istanbul","neighborhood":"Beyazıt","category":"neighborhood","avg_duration_min":120,"price_level":"$$","hours":"08:30-19:00","lat":41.0104,"lng":28.9685,"tags":["shopping","historic","bazaar"],"summary":"Dünyanın en eski ve büyük kapalı çarşılarından biri."}
{"id":"istanbul_poi_4","name":"Sultanahmet Camii","city":"Istanbul","neighborhood":"Sultanahmet","category":"landmark","avg_duration_min":60,"price_level":"$","hours":"24/7","lat":41.0054,"lng":28.9768,"tags":["mosque","ottoman","blue"],"summary":"Mavi çinileriyle ünlü, 6 minareli görkemli cami."}
{"id":"istanbul_poi_5","name":"Galata Kulesi","city":"Istanbul","neighborhood":"Beyoğlu","category":"landmark","avg_duration_min":90,"price_level":"$$","hours":"09:00-20:00","lat":41.0256,"lng":28.9744,"tags":["view","historic","tower"],"summary":"Boğaz ve şehir manzarası için ideal tarihi kule."}
{"id":"istanbul_poi_6","name":"Ortaköy","city":"Istanbul","neighborhood":"Beşiktaş","category":"neighborhood","avg_duration_min":120,"price_level":"$$","hours":"24/7","lat":41.0478,"lng":29.0273,"tags":["bohemian","food","view"],"summary":"Boğaz kenarında kafeler, restoranlar ve canlı atmosfer."}
{"id":"istanbul_poi_7","name":"Dolmabahçe Sarayı","city":"Istanbul","neighborhood":"Beşiktaş","category":"museum","avg_duration_min":150,"price_level":"$$","hours":"09:00-16:00","lat":41.0392,"lng":29.0002,"tags":["ottoman","palace","luxury"],"summary":"Boğaz kenarında muhteşem manzaralı Osmanlı sarayı."}
{"id":"istanbul_poi_8","name":"Balat","city":"Istanbul","neighborhood":"Fatih","category":"neighborhood","avg_duration_min":90,"price_level":"$","hours":"24/7","lat":41.0294,"lng":28.9497,"tags":["historic","colorful","instagram"],"summary":"Renkli evleri ve sokaklarıyla Instagram'da popüler mahalle."}
{"id":"istanbul_poi_9","name":"Çamlıca Tepesi","city":"Istanbul","neighborhood":"Üsküdar","category":"landmark","avg_duration_min":60,"price_level":"$","hours":"24/7","lat":41.0214,"lng":29.0633,"tags":["view","sunset","nature"],"summary":"Şehrin en yüksek noktasından muhteşem manzara."}
{"id":"istanbul_poi_10","name":"Kadıköy Moda","city":"Istanbul","neighborhood":"Kadıköy","category":"neighborhood","avg_duration_min":120,"price_level":"$$","hours":"24/7","lat":40.9909,"lng":29.0303,"tags":["hipster","cafe","young"],"summary":"Gençlerin buluşma noktası, kafeler ve canlı sokak hayatı."}
{"id":"rome_poi_1","name":"Colosseum","city":"Rome","neighborhood":"Centro Storico","category":"landmark","avg_duration_min":120,"price_level":"$$","hours":"08:30-19:00","lat":41.8902,"lng":12.4922,"tags":["ancient","iconic","amphitheater"],"summary":"Antik Roma'nın en ikonik yapısı, gladyatör oyunları arenası."}
{"id":"rome_poi_2","name":"Vatican Museums","city":"Rome","neighborhood":"Vatican City","category":"museum","avg_duration_min":180,"price_level":"$$","hours":"09:00-18:00","lat":41.9069,"lng":12.4539,"tags":["art","vatican","sistine"],"summary":"Sistine Şapeli dahil dünya çapında sanat koleksiyonu."}
{"id":"rome_poi_3","name":"Trevi Fountain","city":"Rome","neighborhood":"Centro Storico","category":"landmark","avg_duration_min":30,"price_level":"$","hours":"24/7","lat":41.9009,"lng":12.4833,"tags":["fountain","wish","baroque"],"summary":"Barok tarzında ünlü çeşme, dilek tutma geleneği."}
{"id":"rome_poi_4","name":"Pantheon","city":"Rome","neighborhood":"Centro Storico","category":"landmark","avg_duration_min":60,"price_level":"$","hours":"09:00-19:00","lat":41.8986,"lng":12.4769,"tags":["ancient","temple","architecture"],"summary":"2000 yıllık antik tapınak, mükemmel mimari."}
{"id":"rome_poi_5","name":"Roman Forum","city":"Rome","neighborhood":"Centro Storico","category":"landmark","avg_duration_min":90,"price_level":"$$","hours":"08:30-19:00","lat":41.8925,"lng":12.4853,"tags":["ancient","ruins","historic"],"summary":"Antik Roma'nın kalbi, siyasi ve dini merkezi."}
{"id":"rome_poi_6","name":"Trastevere","city":"Rome","neighborhood":"Trastevere","category":"neighborhood","avg_duration_min":120,"price_level":"$$","hours":"24/7","lat":41.8897,"lng":12.4699,"tags":["bohemian","food","nightlife"],"summary":"Tiber nehri kenarında canlı mahalle, restoranlar ve gece hayatı."}
{"id":"rome_poi_7","name":"Piazza Navona","city":"Rome","neighborhood":"Centro Storico","category":"landmark","avg_duration_min":60,"price_level":"$","hours":"24/7","lat":41.8992,"lng":12.4731,"tags":["square","fountain","baroque"],"summary":"Barok çeşmeleriyle ünlü tarihi meydan."}
{"id":"rome_poi_8","name":"Castel Sant'Angelo","city":"Rome","neighborhood":"Vatican","category":"landmark","avg_duration_min":90,"price_level":"$$","hours":"09:00-19:30","lat":41.9031,"lng":12.4663,"tags":["castle","vatican","view"],"summary":"Tiber nehri kenarında tarihi kale, şehir manzarası."}
{"id":"rome_poi_9","name":"Campo de' Fiori","city":"Rome","neighborhood":"Centro Storico","category":"neighborhood","avg_duration_min":60,"price_level":"$$","hours":"24/7","lat":41.8955,"lng":12.4722,"tags":["market","square","food"],"summary":"Sabah pazarı ve akşam canlı atmosfer."}
{"id":"rome_poi_10","name":"Villa Borghese","city":"Rome","neighborhood":"Pinciano","category":"park","avg_duration_min":120,"price_level":"$","hours":"24/7","lat":41.9144,"lng":12.4874,"tags":["park","museum","nature"],"summary":"Büyük park, müzeler ve doğal güzellik."}
{"id":"tokyo_poi_1","name":"Senso-ji Temple","city":"Tokyo","neighborhood":"Asakusa","category":"landmark","avg_duration_min":90,"price_level":"$","hours":"06:00-17:00","lat":35.7148,"lng":139.7967,"tags":["temple","traditional","historic"],"summary":"Tokyo'nun en eski Budist tapınağı, geleneksel atmosfer."}
{"id":"tokyo_poi_2","name":"Shibuya Crossing","city":"Tokyo","neighborhood":"Shibuya","category":"landmark","avg_duration_min":30,"price_level":"$","hours":"24/7","lat":35.6595,"lng":139.7004,"tags":["crossing","busy","iconic"],"summary":"Dünyanın en kalabalık yaya geçidi, Tokyo'nun simgesi."}
{"id":"tokyo_poi_3","name":"Tsukiji Outer Market","city":"Tokyo","neighborhood":"Tsukiji","category":"food-street","avg_duration_min":120,"price_level":"$$","hours":"05:00-14:00","lat":35.6654,"lng":139.7704,"tags":["fish","market","food"],"summary":"Balık pazarı ve geleneksel Japon restoranları."}
{"id":"tokyo_poi_4","name":"Meiji Shrine","city":"Tokyo","neighborhood":"Shibuya","category":"landmark","avg_duration_min":90,"price_level":"$","hours":"06:40-16:20","lat":35.6762,"lng":139.6993,"tags":["shrine","nature","peaceful"],"summary":"Doğa içinde huzurlu Şinto tapınağı."}
{"id":"tokyo_poi_5","name":"Akihabara","city":"Tokyo","neighborhood":"Chiyoda","category":"neighborhood","avg_duration_min":120,"price_level":"$$","hours":"10:00-22:00","lat":35.7020,"lng":139.7745,"tags":["electronics","anime","gaming"],"summary":"Elektronik, anime ve oyun dünyasının merkezi."}
{"id":"tokyo_poi_6","name":"Harajuku","city":"Tokyo","neighborhood":"Shibuya","category":"neighborhood","avg_duration_min":120,"price_level":"$$","hours":"10:00-20:00","lat":35.6702,"lng":139.7016,"tags":["fashion","youth","trendy"],"summary":"Genç moda ve kültürün kalbi, Takeshita Dori."}
{"id":"tokyo_poi_7","name":"Ueno Park","city":"Tokyo","neighborhood":"Taito","category":"park","avg_duration_min":120,"price_level":"$","hours":"24/7","lat":35.7148,"lng":139.7714,"tags":["park","museums","cherry"],"summary":"Müzeler, hayvanat bahçesi ve kiraz çiçeği."}
{"id":"tokyo_poi_8","name":"Ginza","city":"Tokyo","neighborhood":"Chuo","category":"neighborhood","avg_duration_min":120,"price_level":"$$$","hours":"10:00-20:00","lat":35.6720,"lng":139.7673,"tags":["luxury","shopping","upscale"],"summary":"Lüks alışveriş ve yüksek kaliteli restoranlar."}
{"id":"tokyo_poi_9","name":"Odaiba","city":"Tokyo","neighborhood":"Minato","category":"neighborhood","avg_duration_min":180,"price_level":"$$","hours":"24/7","lat":35.6296,"lng":139.7777,"tags":["futuristic","entertainment","bay"],"summary":"Tokyo Bay'de futuristik eğlence ve alışveriş merkezi."}
{"id":"tokyo_poi_10","name":"Roppongi Hills","city":"Tokyo","neighborhood":"Minato","category":"neighborhood","avg_duration_min":120,"price_level":"$$$","hours":"24/7","lat":35.6605,"lng":139.7293,"tags":["modern","nightlife","art"],"summary":"Modern mimari, gece hayatı ve Mori Art Museum."}
{"id":"nyc_poi_1","name":"Times Square","city":"New York","neighborhood":"Manhattan","category":"landmark","avg_duration_min":60,"price_level":"$$","hours":"24/7","lat":40.7580,"lng":-73.9855,"tags":["iconic","bright","busy"],"summary":"Dünyanın en ünlü meydanı, neon ışıklar ve canlı atmosfer."}
{"id":"nyc_poi_2","name":"Central Park","city":"New York","neighborhood":"Manhattan","category":"park","avg_duration_min":180,"price_level":"$","hours":"24/7","lat":40.7829,"lng":-73.9654,"tags":["park","nature","recreation"],"summary":"Manhattan'ın kalbinde 843 dönüm doğal alan."}
{"id":"nyc_poi_3","name":"Statue of Liberty","city":"New York","neighborhood":"Liberty Island","category":"landmark","avg_duration_min":120,"price_level":"$$","hours":"09:00-17:00","lat":40.6892,"lng":-74.0445,"tags":["iconic","freedom","symbol"],"summary":"Amerika'nın özgürlük sembolü, feribotla ulaşım."}
{"id":"nyc_poi_4","name":"Empire State Building","city":"New York","neighborhood":"Manhattan","category":"landmark","avg_duration_min":90,"price_level":"$$","hours":"08:00-23:45","lat":40.7484,"lng":-73.9857,"tags":["skyscraper","view","art-deco"],"summary":"Art Deco tarzında ikonik gökdelen, şehir manzarası."}
{"id":"nyc_poi_5","name":"Metropolitan Museum of Art","city":"New York","neighborhood":"Manhattan","category":"museum","avg_duration_min":240,"price_level":"$$","hours":"10:00-17:30","lat":40.7794,"lng":-73.9632,"tags":["art","culture","world-class"],"summary":"Dünya çapında sanat koleksiyonu, Central Park kenarında."}
{"id":"nyc_poi_6","name":"Brooklyn Bridge","city":"New York","neighborhood":"Brooklyn","category":"landmark","avg_duration_min":90,"price_level":"$","hours":"24/7","lat":40.7061,"lng":-73.9969,"tags":["bridge","walking","view"],"summary":"Manhattan'dan Brooklyn'e yürüyüş, muhteşem manzara."}
{"id":"nyc_poi_7","name":"High Line","city":"New York","neighborhood":"Manhattan","category":"park","avg_duration_min":90,"price_level":"$","hours":"07:00-22:00","lat":40.7480,"lng":-74.0048,"tags":["park","elevated","urban"],"summary":"Eski demiryolu hattında yüksek park, şehir manzarası."}
{"id":"nyc_poi_8","name":"Broadway","city":"New York","neighborhood":"Manhattan","category":"neighborhood","avg_duration_min":120,"price_level":"$$$","hours":"24/7","lat":40.7589,"lng":-73.9851,"tags":["theater","entertainment","culture"],"summary":"Dünya tiyatro sanatının merkezi, Broadway müzikal."}
{"id":"nyc_poi_9","name":"Chinatown","city":"New York","neighborhood":"Manhattan","category":"neighborhood","avg_duration_min":120,"price_level":"$$","hours":"24/7","lat":40.7158,"lng":-73.9970,"tags":["chinese","food","culture"],"summary":"Geleneksel Çin kültürü, restoranlar ve mağazalar."}
{"id":"nyc_poi_10","name":"SoHo","city":"New York","neighborhood":"Manhattan","category":"neighborhood","avg_duration_min":120,"price_level":"$$$","hours":"10:00-20:00","lat":40.7235,"lng":-73.9990,"tags":["shopping","art","fashion"],"summary":"Sanat galerileri, butik mağazalar ve trendi kafeler."}
